City_ID,City,Lat,Lng,Max Temp,Humidity,Cloudiness,Wind Speed,Country,Date
0,hadibu,12.65,54.0333,298.47,69,27,7.19,YE,1701463667
1,avarua,-21.2078,-159.775,300.18,86,100,8.23,CK,1701463667
2,blackmans bay,-43.0167,147.3167,285.78,90,100,1.07,AU,1701463668
3,waitangi,-43.9535,-176.5597,286.38,72,46,2.24,NZ,1701463668
4,weno,7.4515,151.8468,300.12,89,75,1.54,FM,1701463668
5,aasiaat,68.7098,-52.8699,265.29,85,62,3.35,GL,1701463668
6,port mathurin,-19.6833,63.4167,298.73,83,7,5.99,MU,1701463668
7,ushuaia,-54.8,-68.3,283.94,70,75,8.23,AR,1701463669
8,tubarjal,30.4999,38.216,288.85,46,0,3.52,SA,1701463669
9,whitehorse,60.7161,-135.0538,263.2,84,75,3.09,CA,1701463669
10,san diego de la union,21.4667,-100.8667,294.49,39,100,6.97,MX,1701463669
11,tiksi,71.6872,128.8694,239.42,100,89,2.8,RU,1701463670
12,port-aux-francais,-49.35,70.2167,276.54,79,90,11.24,TF,1701463670
13,topolobampo,25.6,-109.05,298.1,31,20,5.66,MX,1701463670
14,colonia,50.9333,6.95,273.47,75,100,3.09,DE,1701463393
15,bilibino,68.0546,166.4372,248.66,91,100,1.6,RU,1701463542
16,gadzhiyevo,69.2551,33.3362,258.75,99,94,1.8,RU,1701463671
17,hawaiian paradise park,19.5933,-154.9731,297.61,94,100,3.6,US,1701463671
18,walvis bay,-22.9575,14.5053,291.53,79,93,6.91,NA,1701463671
19,lata,40.1629,-8.3327,285.27,89,32,0.65,PT,1701463671
20,hamilton,39.1834,-84.5333,284.02,94,100,3.09,US,1701463581
21,lihue,21.9789,-159.3672,295.92,88,100,3.6,US,1701463672
22,bredasdorp,-34.5322,20.0403,290.31,73,60,1.88,ZA,1701463672
23,uturoa,-16.7333,-151.4333,300.33,81,19,8.31,PF,1701463672
24,grytviken,-54.2811,-36.5092,276.9,66,2,5.65,GS,1701463672
25,olonkinbyen,70.9221,-8.7187,271.11,71,100,4.67,SJ,1701463673
26,invercargill,-46.4,168.35,286.52,60,100,0.99,NZ,1701463654
27,jamestown,42.097,-79.2353,278.92,99,100,2.57,US,1701463673
28,stanley,54.868,-1.6985,270.77,100,20,2.06,GB,1701463662
29,san ignacio,17.1561,-89.0714,304.23,74,40,0.0,BZ,1701463674
30,cedeira,43.6797,-8.0209,283.69,78,98,4.58,ES,1701463674
31,masterton,-40.9597,175.6575,290.31,58,95,2.01,NZ,1701463674
32,wailua homesteads,22.0669,-159.378,295.59,88,100,3.6,US,1701463649
33,piikkio,60.4248,22.516,265.63,91,100,2.57,FI,1701463674
34,ilulissat,69.2167,-51.1,274.16,47,20,10.8,GL,1701463675
35,egilsstadir,65.2653,-14.3948,273.1,93,100,6.17,IS,1701463675
36,shingu,33.7333,135.9833,278.43,74,4,3.66,JP,1701463675
37,papatowai,-46.5619,169.4708,287.14,65,100,1.56,NZ,1701463675
38,broken hill,-31.95,141.4333,291.29,56,71,5.66,AU,1701463676
39,adamstown,-25.066,-130.1015,295.22,70,15,4.23,PN,1701463645
40,bethel,41.3712,-73.414,281.35,75,75,1.54,US,1701463676
41,iqaluit,63.7506,-68.5145,267.0,85,100,7.72,CA,1701463671
42,nagqu,31.5,92.0,265.42,92,59,1.51,CN,1701463677
43,punta arenas,-53.15,-70.9167,281.21,66,75,9.26,CL,1701463645
44,engel's,51.5,46.1167,274.4,93,100,2.68,RU,1701463677
45,ust-nera,64.5667,143.2,245.19,99,100,1.08,RU,1701463678
46,tortoli,39.9256,9.6572,295.05,28,40,10.29,IT,1701463678
47,susuman,62.7833,148.1667,250.11,99,100,1.45,RU,1701463678
48,hoemul-li,41.4339,129.67,269.99,42,0,1.43,KP,1701463678
49,mount gambier,-37.8333,140.7667,287.19,78,100,4.39,AU,1701463510
50,nar'yan-mar,67.6713,53.087,266.54,96,100,2.24,RU,1701463640
51,metlili chaamba,32.2667,3.6333,289.67,16,40,2.57,DZ,1701463679
52,souillac,-20.5167,57.5167,296.36,88,20,2.06,MU,1701463679
53,mirebalais,18.8333,-72.1053,305.55,47,23,1.06,HT,1701463679
54,yeniseysk,58.4497,92.1703,266.76,95,100,1.49,RU,1701463679
55,tosontsengel,48.7567,98.2839,253.88,78,96,0.39,MN,1701463680
56,waingapu,-9.6567,120.2641,299.76,84,100,1.49,ID,1701463680
57,lebu,-37.6167,-73.65,286.92,80,99,4.09,CL,1701463664
58,uige,-7.6087,15.0613,291.83,98,1,0.96,AO,1701463680
59,bodo,67.28,14.405,268.17,75,0,7.72,NO,1701463681
60,margaret river,-33.95,115.0667,289.18,88,100,2.87,AU,1701463658
61,thompson,55.7435,-97.8558,258.24,78,75,4.12,CA,1701463681
62,pisco,-13.7,-76.2167,298.18,61,0,6.17,PE,1701463681
63,port elizabeth,-33.918,25.5701,293.76,78,0,6.17,ZA,1701463682
64,sisimiut,66.9395,-53.6735,270.88,79,100,2.66,GL,1701463682
65,port alfred,-33.5906,26.891,292.14,89,87,2.68,ZA,1701463682
66,tsiombe,-25.3,45.4833,293.04,80,22,5.19,MG,1701463683
67,marsassoum,12.8275,-15.9806,299.2,30,78,2.22,SN,1701463683
68,luderitz,-26.6481,15.1594,291.07,81,79,6.99,NA,1701463683
69,puerto ayora,-0.7393,-90.3518,303.13,89,100,3.58,EC,1701463684
70,badger,64.8,-147.5333,254.26,82,20,1.54,US,1701463654
71,dudinka,69.4058,86.1778,251.27,87,100,5.34,RU,1701463685
72,bamboo flat,11.7,92.7167,299.2,89,75,3.09,IN,1701463685
73,lorengau,-2.0226,147.2712,300.28,82,80,2.31,PG,1701463685
74,isafjordur,66.0755,-23.124,269.77,82,51,1.07,IS,1701463647
75,college,64.8569,-147.8028,254.31,79,0,1.54,US,1701463655
76,itaituba,-4.2761,-55.9836,305.24,58,40,5.14,BR,1701463533
77,mary,37.0,62.5,286.39,50,100,4.01,TM,1701463686
78,kloulklubed,7.0419,134.2556,300.43,77,90,6.81,PW,1701463687
79,karasburg,-28.0167,18.75,295.62,27,88,3.51,NA,1701463687
80,sumbawa besar,-8.5,117.4333,297.59,93,100,1.61,ID,1701463687
81,larroque,-33.036,-59.0013,296.0,93,100,5.35,AR,1701463688
82,longyearbyen,78.2186,15.6401,263.06,67,0,9.77,SJ,1701463688
83,karratha,-20.7377,116.8463,296.56,71,0,5.44,AU,1701463621
84,bagan,54.1001,77.6646,268.47,95,97,4.58,RU,1701463689
85,santa cruz,-17.8,-63.1667,308.18,43,20,10.29,BO,1701463689
86,kuanda,56.3161,116.0806,253.26,99,98,0.47,RU,1701463690
87,enewetak,11.3474,162.3373,300.56,79,89,9.09,MH,1701463653
88,kailua-kona,19.6406,-155.9956,302.32,74,40,2.57,US,1701463690
89,dohar,23.5883,90.1469,297.14,71,41,2.54,BD,1701463691
90,dwarka,22.2394,68.9678,297.7,53,0,8.3,IN,1701463691
91,contamana,-7.3333,-75.0167,296.13,99,100,1.31,PE,1701463691
92,puerto natales,-51.7236,-72.4875,280.92,58,72,6.29,CL,1701463652
93,kodiak,57.79,-152.4072,275.88,87,100,4.63,US,1701463692
94,sabang,5.8933,95.3214,299.88,82,100,7.44,ID,1701463692
95,candido mendes,-1.4467,-45.7167,300.27,73,53,2.41,BR,1701463693
96,nizhniy kuranakh,58.8353,125.4869,252.83,95,100,4.11,RU,1701463693
97,stephenville,32.2207,-98.2023,290.46,36,0,2.57,US,1701463546
98,yeppoon,-23.1333,150.7333,300.03,80,85,3.93,AU,1701463637
99,kapuskasing,49.4169,-82.4331,266.2,68,20,5.14,CA,1701463677
100,huesca,42.1362,-0.4087,279.53,83,0,5.66,ES,1701463694
101,kissidougou,9.1848,-10.0999,297.92,59,77,0.4,GN,1701463694
102,west island,-12.1568,96.8225,298.14,78,75,2.57,CC,1701463695
103,esfarayen,37.0765,57.5101,275.96,50,100,0.91,IR,1701463695
104,vorgashor,67.5833,63.95,260.88,91,100,1.65,RU,1701463695
105,magadan,59.5667,150.8,264.85,79,100,4.77,RU,1701463695
106,guer,47.9062,-2.1231,275.76,90,36,2.3,FR,1701463696
107,fortuna,40.5982,-124.1573,285.36,96,100,6.69,US,1701463696
108,mali,12.079,-12.2982,293.28,30,65,0.7,GN,1701463697
109,east london,-33.0153,27.9116,293.93,71,70,9.28,ZA,1701463697
110,utrik,11.2278,169.8474,300.27,79,75,8.99,MH,1701463697
111,arkhangel'sk,64.5401,40.5433,264.21,92,100,3.0,RU,1701463698
112,alaghsas,17.0187,8.0168,296.15,11,3,4.48,NE,1701463698
113,newman,37.3138,-121.0208,289.39,32,21,2.68,US,1701463698
114,faya-largeau,17.9257,19.1043,298.44,14,2,7.68,TD,1701463699
115,barra de santo antonio,-9.4047,-35.5072,301.75,77,69,4.43,BR,1701463699
116,kralendijk,12.15,-68.2667,303.14,70,40,9.26,BQ,1701463544
117,dellys,36.9172,3.9131,291.59,60,81,9.52,DZ,1701463700
118,vuktyl,63.8567,57.3094,264.32,94,100,1.34,RU,1701463700
119,neya,58.2972,43.8681,262.25,98,91,1.67,RU,1701463700
120,zabaykal'sk,49.6333,117.3167,253.42,95,12,3.04,RU,1701463701
121,qaqortoq,60.7167,-46.0333,271.83,93,100,1.68,GL,1701463701
122,murmashi,68.8154,32.8115,251.71,83,20,1.0,RU,1701463701
123,yelizovo,53.1873,158.3805,265.82,66,0,6.0,RU,1701463701
124,san pablo huixtepec,16.8333,-96.7667,301.44,23,40,3.6,MX,1701463702
125,porto novo,6.4965,2.6036,302.05,85,94,3.57,BJ,1701463679
126,barcelos,41.5388,-8.6151,283.62,90,3,1.88,PT,1701463702
127,polyarnyy,69.1989,33.4478,258.92,98,94,1.8,RU,1701463703
128,albany,42.6001,-73.9662,280.31,83,100,1.68,US,1701463668
129,la passe,45.5549,-0.8967,278.28,86,97,5.45,FR,1701463703
130,las veredas,23.1388,-109.7075,300.45,55,20,6.17,MX,1701463704
131,tura,25.5198,90.2201,290.91,73,65,1.51,IN,1701463704
132,calama,-22.4667,-68.9333,298.42,11,0,10.8,CL,1701463657
133,machico,32.7,-16.7667,291.32,69,20,3.6,PT,1701463705
134,zhangye,38.9342,100.4517,270.15,33,24,0.82,CN,1701463705
135,fort st. john,56.2499,-120.8529,265.09,79,75,3.09,CA,1701463486
136,ribeira grande,38.5167,-28.7,291.37,72,75,6.69,PT,1701463706
137,georgetown,5.4112,100.3354,299.83,92,40,2.57,MY,1701463375
138,timra,62.487,17.3257,260.97,85,40,6.69,SE,1701463706
139,yuxia,34.0615,108.6291,268.49,37,42,0.89,CN,1701463706
140,lagos,6.5833,3.75,297.33,88,82,2.46,NG,1701463200
141,marsabit,2.3284,37.9899,294.35,57,32,3.63,KE,1701463707
142,san patricio,28.017,-97.5169,294.12,87,100,5.13,US,1701463707
143,touros,-5.1989,-35.4608,299.46,76,32,5.49,BR,1701463698
144,tazovsky,67.4667,78.7,253.01,96,95,2.5,RU,1701463708
145,ivanteyevka,55.9711,37.9208,268.82,98,100,1.51,RU,1701463708
146,anadyr,64.75,177.4833,260.43,92,100,2.0,RU,1701463708
147,wuchang,44.9143,127.15,259.57,89,62,2.11,CN,1701463709
148,newnham,-41.3833,147.1333,287.77,82,40,3.09,AU,1701463709
149,kapa'a,22.0752,-159.319,296.59,88,100,3.6,US,1701463709
150,petropavlovsk-kamchatsky,53.0452,158.6483,265.07,81,0,7.6,RU,1701463710
151,el porvenir,13.7617,-87.3458,300.78,50,74,1.82,HN,1701463710
152,yellowknife,62.456,-114.3525,254.57,89,100,3.09,CA,1701463710
153,fort bragg,35.139,-79.006,291.99,75,40,2.57,US,1701463663
154,egersund,58.4513,5.9997,268.2,81,35,2.71,NO,1701463711
155,raduzhny,62.0961,77.475,251.5,100,88,0.84,RU,1701463711
156,cestos city,5.46,-9.5828,300.24,85,98,4.89,LR,1701463711
157,beira,-19.8436,34.8389,299.2,61,20,5.36,MZ,1701463712
158,urengoy,65.9667,78.3667,251.48,81,100,3.81,RU,1701463712
159,tangalle,6.024,80.7911,297.66,92,100,4.29,LK,1701463712
160,crane,31.3974,-102.3501,291.53,29,59,5.7,US,1701463713
161,morinville,53.8001,-113.652,268.66,75,100,2.57,CA,1701463713
162,ulety,51.3572,112.4849,258.74,89,27,2.17,RU,1701463713
163,sola,-13.8833,167.55,299.84,85,100,10.55,VU,1701463714
164,nadi,-17.8,177.4167,303.15,62,20,2.06,FJ,1701463714
165,karlskrona,56.1616,15.5866,267.4,93,78,2.57,SE,1701463714
166,gorom-gorom,14.4439,-0.2361,303.15,18,5,3.47,BF,1701463715
167,atafu village,-8.5421,-172.5159,302.38,75,100,6.03,TK,1701463648
168,katabu,-4.9333,122.5167,297.71,94,89,1.12,ID,1701463715
169,trinidad,-14.8333,-64.9,307.14,52,40,7.2,BO,1701463715
170,myrina,39.8797,25.0742,291.73,77,0,5.66,GR,1701463716
171,keflavik,64.0049,-22.5624,273.39,69,0,5.14,IS,1701463716
172,gamboma,-1.8764,15.8644,296.37,90,100,0.83,CG,1701463716
173,nuku'alofa,-21.1333,-175.2,301.34,83,40,4.63,TO,1701463717
174,kuta,-8.7233,115.1723,299.12,88,75,1.54,ID,1701463717
175,guerrero negro,27.9769,-114.0611,292.86,55,21,8.27,MX,1701463717
176,palikir - national government center,6.9248,158.1611,299.62,83,100,3.09,FM,1701463717
177,palu,-0.8917,119.8707,297.0,95,73,1.57,ID,1701463718
178,edinburgh of the seven seas,-37.0676,-12.3116,286.68,74,100,7.48,SH,1701463654
179,kingston,17.997,-76.7936,305.68,64,20,9.77,JM,1701463424
180,haiku-pauwela,20.9219,-156.3051,298.8,78,40,7.72,US,1701463658
181,talnakh,69.4865,88.3972,251.04,90,100,2.58,RU,1701463719
182,toul,48.6667,5.9167,277.31,89,100,4.63,FR,1701463719
183,sitka,57.0531,-135.33,280.09,61,75,7.2,US,1701463719
184,gizo,-8.103,156.8419,301.07,80,100,3.34,SB,1701463720
185,paramonga,-10.6667,-77.8333,295.32,75,65,5.19,PE,1701463720
186,kone,-21.0595,164.8658,300.98,62,34,1.69,NC,1701463720
187,qamdo,31.1667,97.2333,266.78,53,65,1.89,CN,1701463720
188,dhuburi,26.0333,89.9667,292.14,62,87,3.15,IN,1701463721
189,kasaragod,12.5,75.0,297.91,89,89,2.17,IN,1701463721
190,klyuchi,52.2667,79.1667,271.01,81,97,6.55,RU,1701463687
191,iskateley,67.6803,53.1512,266.49,96,100,2.24,RU,1701463721
192,grand-lahou,5.1367,-5.0242,299.82,87,42,3.28,CI,1701463722
193,cabcaben,14.454,120.5914,300.93,81,35,6.9,PH,1701463722
194,kermit,31.8576,-103.0927,293.06,24,0,8.23,US,1701463722
195,lazaro cardenas,17.9583,-102.2,301.99,64,99,3.75,MX,1701463723
196,naze,28.3667,129.4833,287.66,65,97,6.16,JP,1701463723
197,sao vicente,-23.9631,-46.3919,303.25,54,75,2.57,BR,1701463570
198,hasaki,35.7333,140.8333,273.37,54,1,2.62,JP,1701463723
199,novaya igirma,57.1334,103.9112,264.83,95,100,2.91,RU,1701463723
200,kochubey,44.3861,46.5825,280.81,91,82,4.29,RU,1701463724
201,ambatofinandrahana,-20.55,46.8,289.92,90,100,0.45,MG,1701463724
202,banfora,10.6333,-4.7667,302.73,25,55,1.52,BF,1701463725
203,la ronge,55.1001,-105.2842,267.29,63,20,1.54,CA,1701463725
204,tchintabaraden,15.8969,5.7985,298.96,19,2,4.05,NE,1701463725
205,linden,6.0,-58.3,302.57,52,78,2.89,GY,1701463437
206,salmon arm,50.6998,-119.3024,274.77,75,100,0.51,CA,1701463726
207,baiyin,36.5583,104.2081,271.15,49,7,0.29,CN,1701463726
208,sorong,-0.8833,131.25,299.36,86,100,2.98,ID,1701463726
209,happy valley-goose bay,53.3168,-60.3315,271.32,86,75,1.03,CA,1701463726
210,tshabong,-26.05,22.45,302.15,22,0,5.25,BW,1701463727
211,ponta delgada,37.7333,-25.6667,290.48,59,40,3.6,PT,1701463727
212,udachny,66.4167,112.4,246.33,96,100,4.89,RU,1701463667
213,kokopo,-4.352,152.2633,299.23,84,100,1.12,PG,1701463728
214,jijel,36.8205,5.7667,296.12,13,100,7.2,DZ,1701463728
215,afaahiti,-17.75,-149.2833,303.08,83,50,7.53,PF,1701463728
216,nova sintra,14.8667,-24.7167,295.52,77,100,4.74,CV,1701463728
217,thinadhoo,0.5333,72.9333,300.86,78,100,5.03,MV,1701463701
218,nianzishan,47.5167,122.8833,258.1,89,47,2.31,CN,1701463729
219,saipan,15.1355,145.701,300.54,83,75,6.17,MP,1701463729
220,piti village,13.4626,144.6933,300.64,87,20,6.17,GU,1701463729
221,ostrov,57.3439,28.3537,264.0,98,98,1.37,RU,1701463729
222,luoyang,34.6836,112.4536,274.4,27,0,2.28,CN,1701463730
223,ancud,-41.8697,-73.8203,283.47,60,100,5.48,CL,1701463730
224,buenaventura,3.8801,-77.0312,300.67,83,100,2.19,CO,1701463730
225,kidal,18.4411,1.4078,300.32,16,34,1.41,ML,1701463730
226,ulsteinvik,62.3432,5.8487,275.79,86,100,2.24,NO,1701463731
227,holualoa,19.6228,-155.9522,300.25,75,40,2.57,US,1701463476
228,fukuecho,32.6881,128.8419,282.6,64,9,8.78,JP,1701463731
229,seydi,39.4816,62.9137,284.58,49,100,2.17,TM,1701463731
230,el alto,-4.2714,-81.2147,298.96,70,100,8.36,PE,1701463731
231,harrisburg,40.2737,-76.8844,279.45,86,100,1.79,US,1701463698
232,humaita,-7.5061,-63.0208,299.3,83,95,1.76,BR,1701463631
233,colle di val d'elsa,43.4151,11.1314,291.02,100,100,8.82,IT,1701463732
234,camayenne,9.535,-13.6878,301.2,83,20,0.0,GN,1701463732
235,bitkine,11.9801,18.2138,300.35,18,5,2.56,TD,1701463732
236,mount isa,-20.7333,139.5,300.02,69,7,2.57,AU,1701463733
237,zoucheng,35.4006,116.9656,271.6,38,0,2.39,CN,1701463733
238,mohale's hoek,-30.1514,27.4769,295.26,27,4,2.51,LS,1701463733
239,ubinskoye,55.3068,79.6802,268.85,96,100,4.24,RU,1701463733
240,beloyarskiy,63.7119,66.6722,251.96,100,88,1.14,RU,1701463734
241,port lincoln,-34.7333,135.8667,288.72,64,41,4.46,AU,1701463734
242,kafr ash shaykh,31.1143,30.9401,289.13,83,0,2.51,EG,1701463734
243,gouyave,12.1646,-61.7296,302.58,74,20,5.66,GD,1701463734
244,mkushi,-13.6202,29.3939,290.56,90,83,1.28,ZM,1701463734
245,bonthe,7.5264,-12.505,300.35,83,47,3.38,SL,1701463735
246,yorkton,51.2167,-102.4677,271.06,69,0,3.09,CA,1701463492
247,namibe,-15.1961,12.1522,295.5,84,66,4.22,AO,1701463735
248,urangan,-25.3,152.9,298.1,88,62,5.77,AU,1701463735
249,mejit,10.2753,170.8646,300.89,75,97,8.46,MH,1701463735
250,choyr,46.3611,108.3611,259.8,82,3,2.64,MN,1701463736
251,taroudant,30.4703,-8.877,291.18,48,91,1.89,MA,1701463736
252,vadso,70.0744,29.7487,268.24,93,75,0.0,NO,1701463736
253,nazret,8.55,39.2667,288.56,54,3,2.16,ET,1701463736
254,vila franca do campo,37.7167,-25.4333,290.31,99,98,2.98,PT,1701463737
255,lakatoro,-16.0999,167.4164,301.44,73,100,5.73,VU,1701463737
256,st. john's,47.5649,-52.7093,276.42,90,75,8.23,CA,1701463544
257,gamay,12.3854,125.2979,298.62,91,42,4.19,PH,1701463737
258,tinajo,29.0788,-13.7081,292.64,83,20,3.6,ES,1701463737
259,gornyy,55.1153,83.9059,269.87,96,98,5.11,RU,1701463738
260,roslavl',53.9528,32.8639,263.57,100,100,2.94,RU,1701463738
261,izhmorskiy,56.194,86.6414,270.33,90,83,4.14,RU,1701463738
262,kruisfontein,-34.0033,24.7314,292.53,79,100,3.29,ZA,1701463738
263,mezhdurechenskiy,59.6,65.9333,254.89,99,97,0.93,RU,1701463739
264,zeya,53.75,127.2667,259.53,80,0,2.4,RU,1701463739
265,gazojak,41.1875,61.4036,282.71,43,93,3.27,TM,1701463739
266,yuzhno-sakhalinsk,46.9581,142.7337,262.94,92,75,2.0,RU,1701463739
267,vanimo,-2.6741,141.3028,298.43,86,69,1.53,PG,1701463739
268,lindley,-27.8791,27.9135,292.55,26,0,0.87,ZA,1701463740
269,villa vicente guerrero,19.1194,-98.1708,294.81,37,41,5.02,MX,1701463740
270,remire-montjoly,4.9167,-52.2667,303.17,66,0,4.12,GF,1701463740
271,minggang,32.4586,114.0486,276.1,41,30,1.82,CN,1701463740
272,kangding,30.0513,101.9603,277.57,64,95,1.59,CN,1701463741
273,laguna,38.421,-121.4238,289.61,48,0,2.57,US,1701463722
274,partenit,44.578,34.3446,286.26,90,98,6.76,UA,1701463741
275,tamanrasset,22.785,5.5228,289.1,17,0,2.57,DZ,1701463742
276,ilhabela,-23.7781,-45.3581,298.11,89,76,1.69,BR,1701463742
277,la'ie,21.6477,-157.9253,296.13,74,100,1.08,US,1701463742
278,brookings,44.3114,-96.7984,274.36,62,0,0.0,US,1701463506
279,bela,25.9333,81.9833,292.24,82,0,1.19,IN,1701463743
280,san antonio de pale,-1.4014,5.6325,299.8,80,100,3.37,GQ,1701463743
281,petrolina,-9.3986,-40.5008,309.18,20,20,2.06,BR,1701463744
282,alta,69.9689,23.2717,263.74,80,100,25.93,NO,1701463744
283,al kharijah,25.4514,30.5464,290.01,51,0,3.56,EG,1701463744
284,maych'ew,12.7875,39.5422,284.42,65,13,2.53,ET,1701463745
285,flin flon,54.7682,-101.865,265.06,73,100,0.0,CA,1701463745
286,merizo village,13.2658,144.6691,300.46,94,33,9.48,GU,1701463745
287,brigantine,39.4101,-74.3646,284.34,79,40,3.6,US,1701463532
288,atar,20.5169,-13.0499,296.44,31,57,1.58,MR,1701463746
289,antsiranana,-12.2787,49.2917,298.8,85,100,1.83,MG,1701463746
290,hithadhoo,-0.6,73.0833,300.36,77,98,4.21,MV,1701463642
291,sinabang,2.4803,96.3801,298.64,88,100,1.72,ID,1701463708
292,hilo,19.7297,-155.09,297.94,95,100,3.6,US,1701463747
293,tambura,5.6,27.4667,297.4,79,17,1.81,SS,1701463748
294,nova vicosa,-17.8919,-39.3719,299.19,76,100,7.21,BR,1701463748
295,banjar,-8.19,114.9675,298.93,92,100,2.84,ID,1701463748
296,orsk,51.2049,58.5668,273.65,93,100,3.0,RU,1701463749
297,milford haven,51.7128,-5.0341,270.96,72,16,2.09,GB,1701463749
298,ridder,50.355,83.5133,270.52,96,100,2.56,KZ,1701463749
299,beinamar,8.6698,15.3813,300.56,28,71,1.16,TD,1701463749
300,kawalu,-7.3817,108.2082,294.69,96,99,0.42,ID,1701463750
301,howrah,22.5892,88.3103,295.15,78,58,0.0,IN,1701463751
302,carutapera,-1.195,-46.02,300.31,74,43,2.98,BR,1701463751
303,ola,59.5833,151.2833,264.94,77,100,4.66,RU,1701463751
304,tommot,58.9564,126.2925,253.01,94,100,4.15,RU,1701463752
305,pedro ii,-4.4247,-41.4586,301.58,42,83,2.99,BR,1701463752
306,san rafael,-34.6177,-68.3301,303.18,17,11,7.71,AR,1701463752
307,musan-up,42.2261,129.2078,262.12,76,1,1.84,KP,1701463752
308,ifon,6.9241,5.776,299.28,73,82,1.91,NG,1701463753
309,porangatu,-13.4408,-49.1486,298.92,73,100,1.53,BR,1701463753
310,kota kinabalu,5.9749,116.0724,298.14,94,20,1.54,MY,1701463754
311,yanbu,24.0891,38.0637,298.17,78,0,3.6,SA,1701463754
312,belfast,54.5833,-5.9333,276.14,86,40,2.57,GB,1701463754
313,mentekab,3.4854,102.3484,297.01,99,100,0.5,MY,1701463755
314,klaksvik,62.2266,-6.589,275.66,68,100,9.56,FO,1701463755
315,aitape,-3.1374,142.3475,298.73,80,91,1.31,PG,1701463755
316,mumford,5.2618,-0.759,300.26,86,35,4.54,GH,1701463756
317,rio grande,-32.035,-52.0986,302.21,83,0,9.14,BR,1701463593
318,rongelap,11.1635,166.8941,301.06,71,100,8.53,MH,1701463756
319,puerto baquerizo moreno,-0.9,-89.6,300.7,78,75,6.69,EC,1701463697
320,chonchi,-42.6128,-73.8092,285.71,66,100,3.28,CL,1701463676
321,smithers,54.7804,-127.1743,271.33,74,100,4.12,CA,1701463758
322,daru,-9.0763,143.2092,300.61,80,100,2.47,PG,1701463758
323,aginskoye,51.1,114.53,258.43,86,17,3.17,RU,1701463758
324,codrington,-38.2667,141.9667,287.7,77,93,6.29,AU,1701463759
325,vyaz'ma,55.2104,34.2951,259.18,100,93,1.97,RU,1701463759
326,fale old settlement,-9.3852,-171.2468,302.37,74,100,5.56,TK,1701463672
327,shakawe,-18.3667,21.85,297.23,56,69,2.17,BW,1701463760
328,midvagur,62.0511,-7.1939,275.61,80,100,1.03,FO,1701463760
329,aiquile,-18.2041,-65.1807,296.57,48,41,4.36,BO,1701463760
330,verkhniy baskunchak,48.2256,46.7217,280.37,85,100,12.37,RU,1701463761
331,bandar-e anzali,37.4727,49.4622,287.12,84,5,2.5,IR,1701463761
332,sherwood,34.8151,-92.2243,293.27,65,75,5.14,US,1701463761
333,usinsk,65.9939,57.5281,265.97,91,100,2.68,RU,1701463762
334,murzuq,25.9155,13.9184,290.35,21,0,3.83,LY,1701463762
335,freeport,40.6576,-73.5832,282.18,80,75,2.57,US,1701463586
336,shira,54.4911,89.9531,267.96,97,100,0.68,RU,1701463762
337,priargunsk,50.3691,119.1012,245.8,100,80,0.16,RU,1701463763
338,dhidhdhoo,6.8833,73.1,301.45,74,100,1.95,MV,1701463763
339,pacific grove,36.6177,-121.9166,290.59,62,0,4.12,US,1701463633
340,ust'-ilimsk,58.0006,102.6619,265.5,94,100,2.68,RU,1701463763
341,ghadamis,30.1337,9.5007,293.44,16,100,3.13,LY,1701463674
342,suntar,62.1444,117.6319,241.4,99,95,1.43,RU,1701463764
343,los llanos de aridane,28.6585,-17.9182,292.01,79,20,4.63,ES,1701463478
344,al khafji,28.4391,48.4913,292.81,40,6,5.4,SA,1701463764
345,ballina,-28.8667,153.5667,297.47,72,3,5.21,AU,1701463765
346,cill airne,52.05,-9.5167,276.74,71,99,1.56,IE,1701463765
347,east ballina,-28.8667,153.5833,297.48,72,3,5.37,AU,1701463765
348,aldama,22.9167,-98.0667,303.98,45,100,2.16,MX,1701463766
349,zouerate,22.7187,-12.4521,295.35,39,91,2.55,MR,1701463766
350,birni n konni,13.7956,5.2553,301.58,15,4,4.2,NE,1701463766
351,ad dindar,13.2,34.1667,302.59,23,60,3.71,SD,1701463766
352,mananjary,-21.2167,48.3333,295.61,92,100,3.99,MG,1701463767
353,alice springs,-23.7,133.8833,290.9,94,0,0.0,AU,1701463767
354,buala,-8.145,159.5921,300.0,85,100,3.81,SB,1701463768
355,wynyard,-41.0,145.7167,287.93,74,100,0.87,AU,1701463666
356,kusheriki,10.5328,6.4422,300.11,21,57,3.66,NG,1701463768
357,arnedo,42.2167,-2.1,279.87,68,25,2.58,ES,1701463769
358,mahina,-17.5065,-149.489,304.02,70,20,2.57,PF,1701463670
359,kazlu ruda,54.7667,23.5,271.14,96,100,3.9,LT,1701463769
360,sungai penuh,-2.0833,101.3833,291.22,96,100,0.47,ID,1701463769
361,kismayo,-0.3582,42.5454,300.3,83,97,4.12,SO,1701463770
362,hotan,37.0997,79.9269,274.76,39,99,0.98,CN,1701463770
363,konarka,19.9,86.1167,294.37,70,94,3.32,IN,1701463770
364,penaranda de bracamonte,40.9011,-5.2003,277.23,84,21,5.83,ES,1701463739
365,ponedera,10.641,-74.7503,303.23,61,5,3.18,CO,1701463771
366,allapalli,19.4167,80.0667,293.57,82,56,0.44,IN,1701463771
367,bratsk,56.1325,101.6142,264.42,96,100,2.66,RU,1701463771
368,mogocha,53.7333,119.7667,250.09,98,46,1.13,RU,1701463772
369,mount pearl,47.5166,-52.7813,275.96,91,75,8.23,CA,1701463772
370,arteche,12.2645,125.4048,298.86,90,72,4.63,PH,1701463772
371,east rochester,43.1087,-77.4875,280.59,87,100,2.57,US,1701463557
372,mizdah,31.4451,12.9801,288.88,22,64,3.2,LY,1701463773
373,lobujya,27.95,86.8167,259.97,38,1,0.82,NP,1701463773
374,pemangkat,1.1667,108.9667,297.34,90,100,2.17,ID,1701463773
375,international falls,48.6011,-93.411,273.79,71,95,4.63,US,1701463764
376,flying fish cove,-10.4217,105.6791,297.97,83,75,2.57,CX,1701463644
377,bathsheba,13.2167,-59.5167,302.49,70,40,7.72,BB,1701463774
378,tobruk,32.0836,23.9764,291.29,57,2,3.51,LY,1701463775
379,saint-felicien,48.6501,-72.4491,269.53,68,75,1.03,CA,1701463582
380,crescent city,41.756,-124.2018,285.35,99,100,5.14,US,1701463687
381,ad dana,36.2125,36.7698,279.11,58,0,0.85,SY,1701463776
382,el calafate,-50.3408,-72.2768,281.35,44,16,7.65,AR,1701463776
383,tugulym,57.0591,64.6425,261.19,85,100,1.95,RU,1701463777
384,tidjikja,18.5564,-11.4271,299.49,14,48,3.32,MR,1701463777
385,jalai nur,49.45,117.7,252.43,94,5,2.11,CN,1701463777
386,novo aripuana,-5.1206,-60.3797,304.33,56,90,1.38,BR,1701463777
387,itacare,-14.2775,-38.9967,299.09,75,77,3.66,BR,1701463778
388,chibougamau,49.9168,-74.3659,262.94,79,0,3.6,CA,1701463778
389,vilyuchinsk,52.9306,158.4028,265.89,83,11,5.36,RU,1701463779
390,kharp,66.8014,65.8081,253.43,100,100,0.6,RU,1701463779
391,tippi,7.2,35.45,292.63,73,55,1.47,ET,1701463732
392,hermanus,-34.4187,19.2345,290.44,82,37,4.33,ZA,1701463666
393,isla mujeres,21.2311,-86.731,303.24,80,78,6.46,MX,1701463780
394,azangaro,-14.9167,-70.2167,285.45,62,96,1.86,PE,1701463780
395,vung tau,10.346,107.0843,299.07,80,90,3.7,VN,1701463781
396,middelburg,-25.7751,29.4648,292.25,45,0,2.22,ZA,1701463781
397,pekanbaru,0.5333,101.45,297.33,100,75,1.54,ID,1701463781
398,timbo,-26.8233,-49.2717,299.77,79,93,2.12,BR,1701463782
399,guiuan,11.0333,125.7247,300.81,82,100,7.79,PH,1701463782
400,sinmak,38.4167,126.2333,268.49,63,41,1.33,KP,1701463782
401,boa vista,2.8197,-60.6733,307.14,38,75,5.66,BR,1701463782
402,prince george,53.9166,-122.753,272.2,88,100,1.54,CA,1701463700
403,baruun-urt,46.6806,113.2792,254.59,86,4,2.89,MN,1701463783
404,tralee,52.2704,-9.7026,275.73,84,77,1.89,IE,1701463779
405,zhalantun,48.0,122.7167,257.07,91,38,3.01,CN,1701463783
406,luena,-11.7833,19.9167,292.25,94,0,2.06,AO,1701463783
407,fredericton,45.9454,-66.6656,281.73,57,100,1.54,CA,1701463580
408,san luis ixcan,15.7872,-91.095,303.93,54,9,1.63,GT,1701463784
409,mugia,43.1041,-9.2179,283.1,66,93,5.87,ES,1701463702
410,coahuayana de hidalgo,18.7,-103.6583,302.64,56,99,1.97,MX,1701463784
411,yanchep,-31.55,115.6833,294.23,91,6,3.81,AU,1701463785
412,severo-yeniseyskiy,60.3725,93.0408,264.58,98,100,1.34,RU,1701463785
413,corinto,37.9407,22.9573,290.31,79,91,2.16,GR,1701463785
414,moab,38.5733,-109.5498,280.16,65,100,2.35,US,1701463786
415,kiunga,-6.1219,141.2906,296.75,99,100,1.02,PG,1701463786
416,arar,30.9753,41.0381,285.16,50,0,2.57,SA,1701463786
417,valentin gomez farias,28.2167,-106.5833,291.78,12,62,9.66,MX,1701463786
418,busko-zdroj,50.4708,20.7188,273.2,97,100,3.2,PL,1701463786
419,kataba,13.9833,44.3833,287.54,50,61,1.08,YE,1701463787
420,alofi,-19.0595,-169.9187,302.09,74,20,4.12,NU,1701463787
421,panaba,21.2833,-88.2667,305.19,51,85,6.34,MX,1701463787
422,mobaye,4.319,21.1786,296.72,86,42,0.37,CF,1701463787
423,north bend,43.4065,-124.2243,286.63,82,100,5.66,US,1701463552
424,argo,37.6333,22.7333,290.25,75,96,1.84,GR,1701463672
425,west bay,19.3667,-81.4167,303.19,80,40,5.66,KY,1701463788
426,hammerfest,70.6634,23.6821,267.4,73,40,4.63,NO,1701463665
427,puerto colombia,10.9878,-74.9547,303.2,70,5,7.47,CO,1701463775
428,mombaca,-5.7431,-39.6275,306.76,28,46,2.52,BR,1701463789
429,sydney mines,46.2367,-60.2177,280.93,84,75,5.14,CA,1701463789
430,hengchun,22.0042,120.7439,294.08,76,70,10.26,TW,1701463790
431,north bondi,-33.8824,151.2769,294.99,81,75,3.6,AU,1701463790
432,tervel,43.75,27.4,284.9,80,72,4.08,BG,1701463790
433,sandnessjoen,66.0217,12.6316,267.21,86,20,5.66,NO,1701463688
434,dinguiraye,11.3,-10.7167,299.41,30,98,0.85,GN,1701463791
435,segou,13.4317,-6.2157,303.54,17,97,3.55,ML,1701463791
436,port saint john's,-31.6229,29.5448,294.83,89,2,6.36,ZA,1701463757
437,catriel,-37.8791,-67.7956,304.35,9,17,14.4,AR,1701463792
438,tumaco,1.7986,-78.8156,300.54,77,42,4.88,CO,1701463792
439,kyzyl-mazhalyk,51.1333,90.6,256.43,90,100,0.45,RU,1701463792
440,coyhaique,-45.5752,-72.0662,279.49,81,100,4.12,CL,1701463698
441,hanceville,34.0607,-86.7675,291.49,97,100,2.95,US,1701463792
442,sierra grande,-41.606,-65.3557,296.01,28,62,6.24,AR,1701463793
443,havsa,41.549,26.8221,288.71,84,30,8.77,TR,1701463793
444,nizhnesortymskiy,62.4397,71.7603,252.29,99,88,3.45,RU,1701463793
445,edson,53.5835,-116.4356,265.23,67,0,2.06,CA,1701463793
446,san-pedro,4.7485,-6.6363,299.72,86,37,2.66,CI,1701463793
447,baiti,13.745,-14.7482,304.03,14,100,3.26,SN,1701463794
448,arak,34.0917,49.6892,279.97,33,12,0.85,IR,1701463794
449,languyan,5.2618,120.0807,298.93,86,29,1.01,PH,1701463794
450,falam,22.9167,93.6833,285.04,84,99,0.9,MM,1701463794
451,fonte boa,-2.4959,-66.2662,298.86,90,100,0.87,BR,1701463795
452,bechem,7.0903,-2.025,298.4,69,72,0.71,GH,1701463795
453,yuzhno-kurilsk,44.0306,145.8556,274.47,64,60,6.57,RU,1701463795
454,kisanga,-7.4362,37.7034,297.95,89,77,0.92,TZ,1701463795
455,queenstown,-31.8976,26.8753,287.96,58,6,2.09,ZA,1701463795
456,malango,-2.9627,119.9001,293.28,98,98,0.41,ID,1701463720
457,port blair,11.6667,92.75,299.17,89,75,3.09,IN,1701463796
458,nanning,22.8167,108.3167,288.4,61,100,1.69,CN,1701463796
459,chinde,26.8418,88.0763,286.31,63,100,1.83,NP,1701463796
460,dunedin,-45.8742,170.5036,288.04,68,100,2.68,NZ,1701463797
461,nouadhibou,20.931,-17.0347,295.14,88,92,1.54,MR,1701463797
462,taoudenni,22.6783,-3.9836,295.83,12,49,0.67,ML,1701463797
463,portland,45.5234,-122.6762,284.03,89,75,4.47,US,1701463679
464,khovd,48.0056,91.6419,261.74,85,98,0.59,MN,1701463703
465,doka,13.5167,35.7667,300.06,28,6,4.7,SD,1701463798
466,coquimbo,-29.9533,-71.3436,293.0,59,20,5.66,CL,1701463663
467,harrogate,53.9908,-1.5373,271.45,95,0,1.54,GB,1701463798
468,nantucket,41.2835,-70.0995,285.23,85,0,4.63,US,1701463798
469,undurkhaan,47.3194,110.6556,256.85,82,2,2.52,MN,1701463798
470,limulunga,-15.0969,23.1376,294.87,80,97,2.43,ZM,1701463799
471,calilegua,-23.7737,-64.77,312.22,30,77,2.83,AR,1701463799
472,nieuw amsterdam,5.8833,-55.0833,304.24,69,20,5.14,SR,1701463799
473,luanda,-8.8368,13.2343,300.15,78,20,3.09,AO,1701463572
474,sakakah,29.9697,40.2064,288.91,46,0,3.75,SA,1701463800
475,bandon,51.7469,-8.7425,275.92,76,74,0.5,IE,1701463800
476,tselinnoye,53.0833,85.6667,272.88,85,100,6.5,RU,1701463709
477,callao,-12.0667,-77.15,295.31,68,40,5.66,PE,1701463800
478,felege neway,6.3,36.8833,291.4,62,13,0.45,ET,1701463801
479,carnarvon,-24.8667,113.6333,295.28,83,9,6.53,AU,1701463801
480,kourou,5.1552,-52.6478,303.18,77,100,3.05,GF,1701463801
481,cururupu,-1.8283,-44.8683,300.36,70,71,2.41,BR,1701463802
482,pyay,18.8167,95.2167,293.98,73,100,2.4,MM,1701463802
483,khandyga,62.6667,135.6,235.38,100,100,0.57,RU,1701463803
484,kiama,-34.6833,150.8667,294.47,85,100,0.89,AU,1701463805
485,yarmouth,41.7057,-70.2286,285.41,86,20,5.66,US,1701463806
486,swakopmund,-22.6833,14.5333,291.47,84,85,2.68,NA,1701463806
487,benguela,-12.5763,13.4055,299.31,82,45,0.74,AO,1701463807
488,manakara,-22.1333,48.0167,295.54,88,100,4.97,MG,1701463807
489,filadelfia,39.9523,-75.1638,282.13,82,100,2.57,US,1701463680
490,broome,42.2506,-75.833,278.86,95,100,1.54,US,1701463808
491,tromso,69.6496,18.957,272.16,86,40,7.72,NO,1701463808
492,soderhamn,61.3037,17.0592,265.35,92,99,2.65,SE,1701463809
493,horta,38.5333,-28.6333,290.95,76,75,6.69,PT,1701463809
494,tazacorte,28.629,-17.9293,293.69,78,20,4.63,ES,1701463810
495,gaspe,48.8334,-64.4819,277.1,70,40,3.09,CA,1701463810
496,taltal,-25.4,-70.4833,293.16,67,22,3.98,CL,1701463810
497,okhotsk,59.3833,143.3,246.11,88,26,4.65,RU,1701463811
498,qulsary,46.9531,54.0198,277.91,93,100,3.24,KZ,1701463811
499,vorkuta,67.5,64.0,260.97,91,100,1.76,RU,1701463812
500,pandan,14.0453,124.1694,299.73,85,42,6.49,PH,1701463812
501,whitewater,42.8336,-88.7323,275.89,83,100,5.77,US,1701463812
502,nemuro,43.3236,145.575,272.35,69,30,4.14,JP,1701463813
503,umuarama,-23.7664,-53.325,303.4,68,95,2.82,BR,1701463813
504,fedorovskiy,45.0972,40.9517,285.59,61,100,5.19,RU,1701463814
505,rawai,7.7797,98.3253,297.21,79,75,6.18,TH,1701463815
506,susice,49.2311,13.5202,273.77,88,100,1.34,CZ,1701463815
507,kajaani,64.2273,27.7285,265.18,86,100,1.03,FI,1701463815
508,okha,53.5739,142.9478,258.91,90,76,7.01,RU,1701463816
509,rantoul,40.3084,-88.1559,281.47,98,100,1.54,US,1701463527
510,lompoc,34.6391,-120.4579,292.88,45,0,8.75,US,1701463816
511,payson,40.0444,-111.7321,275.07,91,100,1.54,US,1701463817
512,kuraymah,18.55,31.85,298.22,25,0,6.29,SD,1701463817
513,butembo,0.15,29.2833,286.66,92,45,1.39,CD,1701463817
514,mirnyy,62.5353,113.9611,244.77,100,58,2.19,RU,1701463818
515,mawlaik,23.6333,94.4167,290.37,90,82,0.61,MM,1701463703
516,salekhard,66.53,66.6019,246.88,100,100,0.65,RU,1701463818
517,chaman,30.9236,66.4512,283.65,52,0,0.79,PK,1701463819
518,ambanja,-13.6833,48.45,297.82,88,86,0.85,MG,1701463819
519,bangkalan,-7.0455,112.7351,299.12,84,100,2.14,ID,1701463819
520,buulobarde,3.8538,45.5674,300.12,59,98,6.18,SO,1701463819
521,tucupita,9.0622,-62.051,301.8,65,55,2.93,VE,1701463820
522,tashtagol,52.7657,87.8894,273.44,100,100,0.89,RU,1701463820
523,saint-joseph,-21.3667,55.6167,297.36,80,77,0.69,RE,1701463821
524,tapes,-30.6733,-51.3958,298.17,79,0,7.57,BR,1701463821
525,sarakhs,36.5449,61.1577,285.73,57,84,3.02,IR,1701463822
526,port isabel,26.0734,-97.2086,298.17,83,100,4.63,US,1701463822
527,yasuj,30.6682,51.588,279.9,39,0,0.0,IR,1701463823
528,sosnovo-ozerskoye,52.5249,111.5418,256.67,96,73,3.11,RU,1701463823
529,kose,40.21,39.6511,272.5,88,34,1.56,TR,1701463824
530,sumperk,49.9653,16.9706,273.01,97,100,2.28,CZ,1701463824
531,tiquipaya,-17.3382,-66.2189,297.55,36,75,6.17,BO,1701463825
532,castillos,-34.1667,-53.8333,295.17,94,100,1.5,UY,1701463791
533,bouafle,6.9904,-5.7442,299.16,78,12,1.53,CI,1701463825
534,shiqian,27.5225,108.2281,279.12,89,100,0.71,CN,1701463825
535,oskaloosa,41.2964,-92.6444,277.47,75,100,5.66,US,1701463826
536,bowling green,36.9903,-86.4436,287.15,91,100,5.14,US,1701463720
537,bardai,11.65,7.2333,296.63,21,32,3.88,NG,1701463826
538,bunia,1.5667,30.25,290.72,80,6,1.04,CD,1701463827
539,bam,29.106,58.357,288.25,45,0,0.52,IR,1701463827
540,chul'man,56.8479,124.9104,246.49,100,100,1.1,RU,1701463827
541,belo sur tsiribihina,-19.7,44.55,299.09,75,100,2.58,MG,1701463828
542,pachino,36.7186,15.0907,292.19,74,100,8.24,IT,1701463828
543,omutinskiy,56.4745,67.6709,262.71,95,93,2.74,RU,1701463828
544,skowhegan,44.7651,-69.7192,285.46,84,100,0.53,US,1701463535
545,zomba,-15.386,35.3188,292.24,86,100,1.84,MW,1701463829
546,skovorodino,53.9833,123.9167,255.88,97,100,0.35,RU,1701463829
547,brisas de zicatela,15.8369,-97.0419,302.95,62,8,2.4,MX,1701463830
548,posto fiscal rolim de moura,-13.0833,-62.2667,305.59,50,85,1.6,BR,1701463830
549,magistral'nyy,56.1725,107.4458,259.47,93,100,2.96,RU,1701463830
550,dubti,11.7361,41.0853,300.05,43,96,5.48,ET,1701463831
551,ontario,34.0633,-117.6509,292.6,52,20,3.09,US,1701463831
552,port-vila,-17.7338,168.3219,298.93,94,75,3.6,VU,1701463832
553,saldanha,-33.0117,17.9442,291.18,81,26,3.78,ZA,1701463832
554,saudarkrokur,65.7461,-19.6394,268.64,83,30,2.24,IS,1701463833
555,usogorsk,63.4106,48.6872,261.3,98,100,1.62,RU,1701463833
556,bengkulu,-3.8004,102.2655,296.69,95,99,1.19,ID,1701463762
557,ungsang-nodongjagu,42.3578,130.4622,266.33,67,1,1.3,KP,1701463834
558,jiazi,22.8779,116.067,290.37,72,100,5.95,CN,1701463834
559,papao,-17.75,-149.55,303.97,82,26,8.79,PF,1701463835
560,la foa,-21.7108,165.8276,300.05,65,12,1.65,NC,1701463835
561,al jawf,29.5,38.75,288.89,48,0,3.64,SA,1701463776
